{"placemarks":[{"address":"Calle de Ochagavia, 16-18, 28039 Madrid","charging":false,"coordinates":[-3.7172,40.46369,0],"engineType":"ED","exterior":"GOOD","fuel":49,"interior":"GOOD","name":"326/4707JKD","smartPhoneRequired":true,"vin":"WME4513901K844008"},{"address":"Calle de Bustamante, 45, 28045 Madrid","charging":false,"coordinates":[-3.68606,40.40044,0],"engineType":"ED","exterior":"GOOD","fuel":64,"interior":"GOOD","name":"133/9535JJS","smartPhoneRequired":true,"vin":"WME4513901K844898"},{"address":"Av. del General Perón, 29, 28020 Madrid","charging":false,"coordinates":[-3.69358,40.45297,0],"engineType":"ED","exterior":"GOOD","fuel":93,"interior":"GOOD","name":"124/9409JJS","smartPhoneRequired":true,"vin":"WME4513901K844903"},{"address":"Calle de Viejas, 25, 28046 Madrid","charging":false,"coordinates":[-3.68383,40.48039,0],"engineType":"ED","exterior":"GOOD","fuel":89,"interior":"GOOD","name":"497/9726JNR","smartPhoneRequired":true,"vin":"WME4513901K843545"},{"address":"Calle de Méndez Álvaro, 42, 28045 Madrid","charging":false,"coordinates":[-3.68445,40.39916,0],"engineType":"ED","exterior":"GOOD","fuel":66,"interior":"GOOD","name":"152/1312JJV","smartPhoneRequired":true,"vin":"WME4513901K844018"},{"address":"Paseo de la Castellana, 292, 28046 Madrid","charging":false,"coordinates":[-3.68565,40.4783,0],"engineType":"ED","exterior":"GOOD","fuel":51,"interior":"GOOD","name":"491/9667JNR","smartPhoneRequired":true,"vin":"WME4513901K843488"},{"address":"Calle Pedro de Valdivia, 34, 28006 Madrid","charging":false,"coordinates":[-3.68121,40.4388,0],"engineType":"ED","exterior":"GOOD","fuel":93,"interior":"GOOD","name":"005/6382JJN","smartPhoneRequired":true,"vin":"WME4513901K843933"},{"address":"Av. de Burgos, 17, 28036 Madrid","charging":false,"coordinates":[-3.67581,40.4731,0],"engineType":"ED","exterior":"GOOD","fuel":52,"interior":"GOOD","name":"054/3490JJR","smartPhoneRequired":true,"vin":"WME4513901K844937"},{"address":"Calle de Serrano, 140, 28006 Madrid","charging":false,"coordinates":[-3.68592,40.44147,0],"engineType":"ED","exterior":"GOOD","fuel":69,"interior":"GOOD","name":"487/9654JNR","smartPhoneRequired":true,"vin":"WME4513901K843541"},{"address":"Calle de Ramírez de Prado, 5, 28045 Madrid","charging":false,"coordinates":[-3.6892,40.39942,0],"engineType":"ED","exterior":"GOOD","fuel":93,"interior":"GOOD","name":"129/9491JJS","smartPhoneRequired":true,"vin":"WME4513901K843994"},{"address":"Calle Martín Machío, 8, 28002 Madrid","charging":false,"coordinates":[-3.66356,40.44802,0],"engineType":"ED","exterior":"GOOD","fuel":83,"interior":"GOOD","name":"186/1912JJV","smartPhoneRequired":true,"vin":"WME4513901K843819"},{"address":"Paseo de Camoens, 28008 Madrid","charging":false,"coordinates":[-3.72573,40.43093,0],"engineType":"ED","exterior":"GOOD","fuel":88,"interior":"GOOD","name":"368/3354JNL","smartPhoneRequired":true,"vin":"WME4513901K843618"},{"address":"Calle del Prof. Aranguren, 1, 28040 Madrid","charging":false,"coordinates":[-3.73277,40.4473,0],"engineType":"ED","exterior":"GOOD","fuel":76,"interior":"GOOD","name":"100/3531JJS","smartPhoneRequired":true,"vin":"WME4513901K843579"},{"address":"Paseo de la Castellana, 302, 28046 Madrid","charging":false,"coordinates":[-3.6851,40.48025,0],"engineType":"ED","exterior":"GOOD","fuel":69,"interior":"GOOD","name":"483/9627JNR","smartPhoneRequired":true,"vin":"WME4513901K844044"},{"address":"Paseo Senda del Rey, 17, 28040 Madrid","charging":false,"coordinates":[-3.73697,40.43909,0],"engineType":"ED","exterior":"GOOD","fuel":57,"interior":"GOOD","name":"204/2698JJV","smartPhoneRequired":true,"vin":"WME4513901K844889"},{"address":"Calle de San Germán, 26, 28020 Madrid","charging":false,"coordinates":[-3.69496,40.45643,0],"engineType":"ED","exterior":"GOOD","fuel":59,"interior":"GOOD","name":"484/8641JNR","smartPhoneRequired":true,"vin":"WME4513901K844929"},{"address":"Calle Juan de Vera, 53, 28045 Madrid","charging":false,"coordinates":[-3.69116,40.39601,0],"engineType":"ED","exterior":"GOOD","fuel":66,"interior":"GOOD","name":"118/5074JJS","smartPhoneRequired":true,"vin":"WME4513901K843802"},{"address":"Paseo de la Castellana, 292, 28046 Madrid","charging":false,"coordinates":[-3.68535,40.47867,0],"engineType":"ED","exterior":"GOOD","fuel":81,"interior":"GOOD","name":"137/9592JJS","smartPhoneRequired":true,"vin":"WME4513901K843555"},{"address":"Calle de Méndez Álvaro, 5A, 28045 Madrid","charging":false,"coordinates":[-3.69063,40.40514,0],"engineType":"ED","exterior":"GOOD","fuel":57,"interior":"GOOD","name":"394/0152JNN","smartPhoneRequired":true,"vin":"WME4513901K843947"},{"address":"Calle Planeta Tierra, 2-6, 28045 Madrid","charging":false,"coordinates":[-3.68011,40.39151,0],"engineType":"ED","exterior":"GOOD","fuel":53,"interior":"GOOD","name":"374/3562JNL","smartPhoneRequired":true,"vin":"WME4513901K843554"},{"address":"Paseo de la Castellana, 300, 28046 Madrid","charging":false,"coordinates":[-3.68528,40.47965,0],"engineType":"ED","exterior":"GOOD","fuel":72,"interior":"GOOD","name":"396/3731JNL","smartPhoneRequired":true,"vin":"WME4513901K843635"},{"address":"Calle del Jardín de San Federico, 2, 28009 Madrid","charging":false,"coordinates":[-3.67067,40.42488,0],"engineType":"ED","exterior":"GOOD","fuel":44,"interior":"GOOD","name":"398/4061JNL","smartPhoneRequired":true,"vin":"WME4513901K844098"},{"address":"Av. Puerta de Hierro, 11, 28040 Madrid","charging":false,"coordinates":[-3.73629,40.44639,0],"engineType":"ED","exterior":"GOOD","fuel":59,"interior":"GOOD","name":"397/3942JNL","smartPhoneRequired":true,"vin":"WME4513901K844203"},{"address":"Calle Agustín de Betancourt, 6, 28003 Madrid","charging":false,"coordinates":[-3.69504,40.44545,0],"engineType":"ED","exterior":"GOOD","fuel":52,"interior":"GOOD","name":"478/9605JNR","smartPhoneRequired":true,"vin":"WME4513901K843870"},{"address":"Calle del Prof. Aranguren, 4, 28040 Madrid","charging":false,"coordinates":[-3.7333,40.44725,0],"engineType":"ED","exterior":"GOOD","fuel":57,"interior":"GOOD","name":"402/9850JNM","smartPhoneRequired":true,"vin":"WME4513901K844472"},{"address":"Calle de Carbonero y Sol, 6, 28006 Madrid","charging":false,"coordinates":[-3.69037,40.44488,0],"engineType":"ED","exterior":"GOOD","fuel":72,"interior":"GOOD","name":"477/8635JNR","smartPhoneRequired":true,"vin":"WME4513901K844022"},{"address":"Av. de Pío XII, 94A, 28036 Madrid","charging":false,"coordinates":[-3.67446,40.47199,0],"engineType":"ED","exterior":"GOOD","fuel":34,"interior":"GOOD","name":"315/2337JKD","smartPhoneRequired":true,"vin":"WME4513901K844952"},{"address":"Calle del Padre Claret, 5, 28002 Madrid","charging":false,"coordinates":[-3.66504,40.44485,0],"engineType":"ED","exterior":"GOOD","fuel":70,"interior":"GOOD","name":"108/3544JJS","smartPhoneRequired":true,"vin":"WME4513901K844900"},{"address":"Calle Menéndez Pidal, 4, 28036 Madrid","charging":false,"coordinates":[-3.68275,40.45929,0],"engineType":"ED","exterior":"GOOD","fuel":45,"interior":"GOOD","name":"474/9590JNR","smartPhoneRequired":true,"vin":"WME4513901K843931"},{"address":"Calle de los Estudiantes, 3, 28040 Madrid","charging":false,"coordinates":[-3.71247,40.44672,0],"engineType":"ED","exterior":"GOOD","fuel":94,"interior":"GOOD","name":"247/6874JJW","smartPhoneRequired":true,"vin":"WME4513901K844048"},{"address":"Calle de Leonardo Prieto Castro, 6, 28040 Madrid","charging":false,"coordinates":[-3.72281,40.45256,0],"engineType":"ED","exterior":"GOOD","fuel":65,"interior":"GOOD","name":"409/9914JNM","smartPhoneRequired":true,"vin":"WME4513901K843962"},{"address":"Calle del Gral. Varela, 29, 28020 Madrid","charging":false,"coordinates":[-3.69518,40.45733,0],"engineType":"ED","exterior":"GOOD","fuel":63,"interior":"GOOD","name":"476/9591JNR","smartPhoneRequired":true,"vin":"WME4513901K844006"},{"address":"Calle de José Abascal, 50, 28003 Madrid","charging":false,"coordinates":[-3.69325,40.438,0],"engineType":"ED","exterior":"GOOD","fuel":57,"interior":"GOOD","name":"416/4317JNL","smartPhoneRequired":true,"vin":"WME4513901K844460"},{"address":"Av. de los Toreros, 22, 28028 Madrid","charging":false,"coordinates":[-3.6679,40.43219,0],"engineType":"ED","exterior":"GOOD","fuel":61,"interior":"GOOD","name":"471/9553JNR","smartPhoneRequired":true,"vin":"WME4513901K844101"},{"address":"Calle Manuel Caldeiro, 2, 28046 Madrid","charging":false,"coordinates":[-3.68527,40.47643,0],"engineType":"ED","exterior":"GOOD","fuel":87,"interior":"GOOD","name":"365/0592JMR","smartPhoneRequired":true,"vin":"WME4513901K844000"},{"address":"Calle Henri Dunant, 18, 28036 Madrid","charging":false,"coordinates":[-3.68346,40.46026,0],"engineType":"ED","exterior":"GOOD","fuel":53,"interior":"GOOD","name":"066/7453JJR","smartPhoneRequired":true,"vin":"WME4513901K844113"},{"address":"Calle de Padre Damián, 21, 28036 Madrid","charging":false,"coordinates":[-3.68585,40.45725,0],"engineType":"ED","exterior":"GOOD","fuel":42,"interior":"GOOD","name":"428/8930JNL","smartPhoneRequired":true,"vin":"WME4513901K844269"},{"address":"Calle Daniel Vázquez Díaz, 3, 28046 Madrid","charging":false,"coordinates":[-3.68612,40.47466,0],"engineType":"ED","exterior":"GOOD","fuel":83,"interior":"GOOD","name":"430/8943JNL","smartPhoneRequired":true,"vin":"WME4513901K843943"},{"address":"Calle de García de Paredes, 19, 28010 Madrid","charging":false,"coordinates":[-3.70133,40.43684,0],"engineType":"ED","exterior":"GOOD","fuel":42,"interior":"GOOD","name":"078/7428JJR","smartPhoneRequired":true,"vin":"WME4513901K843980"},{"address":"E park, calle Farmacia 12","charging":false,"coordinates":[-3.69939,40.42385,0],"engineType":"ED","exterior":"GOOD","fuel":61,"interior":"GOOD","name":"460/9516JNR","smartPhoneRequired":true,"vin":"WME4513901K844213"},{"address":"Paseo de Santa María de la Cabeza, 92, 28045 Madrid","charging":false,"coordinates":[-3.7031,40.397,0],"engineType":"ED","exterior":"GOOD","fuel":71,"interior":"GOOD","name":"008/6574JJN","smartPhoneRequired":true,"vin":"WME4513901K843709"},{"address":"Av. de Brasilia, 4, 28028 Madrid","charging":false,"coordinates":[-3.66101,40.43905,0],"engineType":"ED","exterior":"GOOD","fuel":52,"interior":"GOOD","name":"088/3503JJS","smartPhoneRequired":true,"vin":"WME4513901K844118"},{"address":"Calle de Juan Duque, 15-37, 28005 Madrid","charging":false,"coordinates":[-3.71943,40.41307,0],"engineType":"ED","exterior":"GOOD","fuel":26,"interior":"GOOD","name":"102/3529JJS","smartPhoneRequired":true,"vin":"WME4513901K843655"},{"address":"Ronda de Segovia, 2, 28005 Madrid","charging":false,"coordinates":[-3.71823,40.41124,0],"engineType":"ED","exterior":"GOOD","fuel":75,"interior":"GOOD","name":"457/9513JNR","smartPhoneRequired":true,"vin":"WME4513901K843662"},{"address":"Calle de Sta Engracia, 133, 28003 Madrid","charging":false,"coordinates":[-3.702,40.44245,0],"engineType":"ED","exterior":"GOOD","fuel":30,"interior":"GOOD","name":"418/9411JNR","smartPhoneRequired":true,"vin":"WME4513901K843970"},{"address":"Paseo de la Castellana, 292, 28046 Madrid","charging":false,"coordinates":[-3.68565,40.47834,0],"engineType":"ED","exterior":"GOOD","fuel":69,"interior":"GOOD","name":"458/8619JNR","smartPhoneRequired":true,"vin":"WME4513901K843586"},{"address":"Calle de Castelló, 33, 28001 Madrid","charging":false,"coordinates":[-3.6815,40.4255,0],"engineType":"ED","exterior":"GOOD","fuel":43,"interior":"GOOD","name":"018/7113JJN","smartPhoneRequired":true,"vin":"WME4513901K843964"},{"address":"Calle de Hermosilla, 108, 28009 Madrid","charging":false,"coordinates":[-3.67129,40.42554,0],"engineType":"ED","exterior":"GOOD","fuel":45,"interior":"GOOD","name":"019/6162JJN","smartPhoneRequired":true,"vin":"WME4513901K844111"},{"address":"Calle de Tomás Bretón, 56, 28045 Madrid","charging":false,"coordinates":[-3.69117,40.3966,0],"engineType":"ED","exterior":"GOOD","fuel":95,"interior":"GOOD","name":"045/3496JJR","smartPhoneRequired":true,"vin":"WME4513901K844955"},{"address":"E park, calle Farmacia 12","charging":false,"coordinates":[-3.69939,40.42385,0],"engineType":"ED","exterior":"GOOD","fuel":65,"interior":"GOOD","name":"003/6288JJN","smartPhoneRequired":true,"vin":"WME4513901K843846"},{"address":"Calle del Hierro, 20, 28045 Madrid","charging":false,"coordinates":[-3.69151,40.39215,0],"engineType":"ED","exterior":"GOOD","fuel":33,"interior":"GOOD","name":"017/5996JJN","smartPhoneRequired":true,"vin":"WME4513901K843782"},{"address":"40.42156483, -3.65929518","charging":false,"coordinates":[-3.6593,40.42156,0],"engineType":"ED","exterior":"GOOD","fuel":79,"interior":"GOOD","name":"048/3802JJR","smartPhoneRequired":true,"vin":"WME4513901K843776"},{"address":"Calle de Alonso Cano, 42, 28003 Madrid","charging":false,"coordinates":[-3.69752,40.44098,0],"engineType":"ED","exterior":"GOOD","fuel":60,"interior":"GOOD","name":"021/6158JJN","smartPhoneRequired":true,"vin":"WME4513901K844074"},{"address":"Calle Gral. Gallegos, 2D, 28036 Madrid","charging":false,"coordinates":[-3.68612,40.46096,0],"engineType":"ED","exterior":"GOOD","fuel":39,"interior":"GOOD","name":"062/7110JJN","smartPhoneRequired":true,"vin":"WME4513901K844444"},{"address":"Calle Julio López, 2, 28002 Madrid","charging":false,"coordinates":[-3.66328,40.44627,0],"engineType":"ED","exterior":"GOOD","fuel":44,"interior":"GOOD","name":"073/7382JJR","smartPhoneRequired":true,"vin":"WME4513901K844216"},{"address":"Paseo de Juan XXIII, 13, 28040 Madrid","charging":false,"coordinates":[-3.71688,40.44845,0],"engineType":"ED","exterior":"GOOD","fuel":37,"interior":"GOOD","name":"060/5809JJN","smartPhoneRequired":true,"vin":"WME4513901K844915"},{"address":"Paseo de la Castellana, 300, 28046 Madrid","charging":false,"coordinates":[-3.68519,40.47993,0],"engineType":"ED","exterior":"GOOD","fuel":62,"interior":"GOOD","name":"058/7363JJR","smartPhoneRequired":true,"vin":"WME4513901K843873"},{"address":"Calle de Francos Rodríguez, 81, 28039 Madrid","charging":false,"coordinates":[-3.71773,40.45919,0],"engineType":"ED","exterior":"GOOD","fuel":53,"interior":"GOOD","name":"006/6497JJN","smartPhoneRequired":true,"vin":"WME4513901K844433"},{"address":"Calle de Gabriel Lobo, 8, 28002 Madrid","charging":false,"coordinates":[-3.68125,40.44247,0],"engineType":"ED","exterior":"GOOD","fuel":87,"interior":"GOOD","name":"161/9699JMP","smartPhoneRequired":true,"vin":"WME4513901K844030"},{"address":"Calle de San Justo, 1, 28005 Madrid","charging":false,"coordinates":[-3.70935,40.41396,0],"engineType":"ED","exterior":"GOOD","fuel":46,"interior":"GOOD","name":"103/3540JJS","smartPhoneRequired":true,"vin":"WME4513901K843570"},{"address":"Calle Agustín de Betancourt, 7, 28003 Madrid","charging":false,"coordinates":[-3.6953,40.44326,0],"engineType":"ED","exterior":"GOOD","fuel":58,"interior":"GOOD","name":"057/7376JJR","smartPhoneRequired":true,"vin":"WME4513901K844918"},{"address":"Calle Ramiro de Maeztu, 2, 28040 Madrid","charging":false,"coordinates":[-3.71722,40.4493,0],"engineType":"ED","exterior":"GOOD","fuel":61,"interior":"GOOD","name":"386/2887JMP","smartPhoneRequired":true,"vin":"WME4513901K843814"},{"address":"Paseo de la Castellana, 42-44, 28046 Madrid","charging":false,"coordinates":[-3.6881,40.43382,0],"engineType":"ED","exterior":"GOOD","fuel":57,"interior":"GOOD","name":"046/3559JJR","smartPhoneRequired":true,"vin":"WME4513901K843571"},{"address":"Calle Esquilache, 1, 28003 Madrid","charging":false,"coordinates":[-3.70526,40.44312,0],"engineType":"ED","exterior":"GOOD","fuel":43,"interior":"GOOD","name":"055/3488JJR","smartPhoneRequired":true,"vin":"WME4513901K844930"},{"address":"Paseo de la Castellana, 300, 28046 Madrid","charging":false,"coordinates":[-3.68518,40.47973,0],"engineType":"ED","exterior":"GOOD","fuel":74,"interior":"GOOD","name":"185/9702JMP","smartPhoneRequired":true,"vin":"WME4513901K844932"},{"address":"Calle de Juan Ramón Jiménez, 14, 28036 Madrid","charging":false,"coordinates":[-3.68674,40.45947,0],"engineType":"ED","exterior":"GOOD","fuel":42,"interior":"GOOD","name":"120/6061JJS","smartPhoneRequired":true,"vin":"WME4513901K844072"},{"address":"Calle de Castelar, 10, 28028 Madrid","charging":false,"coordinates":[-3.66648,40.43057,0],"engineType":"ED","exterior":"GOOD","fuel":44,"interior":"GOOD","name":"462/8611JNR","smartPhoneRequired":true,"vin":"WME4513901K843749"},{"address":"Calle Oquendo, 18-138, 28006 Madrid","charging":false,"coordinates":[-3.68233,40.44046,0],"engineType":"ED","exterior":"GOOD","fuel":46,"interior":"GOOD","name":"229/9597JJW","smartPhoneRequired":true,"vin":"WME4513901K844450"},{"address":"Calle Guadalquivir, 1, 28002 Madrid","charging":false,"coordinates":[-3.68512,40.44613,0],"engineType":"ED","exterior":"GOOD","fuel":60,"interior":"GOOD","name":"426/8906JNL","smartPhoneRequired":true,"vin":"WME4513901K843767"},{"address":"Calle del Pintor Juan Gris, 1, 28046 Madrid","charging":false,"coordinates":[-3.69092,40.4575,0],"engineType":"ED","exterior":"GOOD","fuel":57,"interior":"GOOD","name":"498/8605JNR","smartPhoneRequired":true,"vin":"WME4513901K843594"},{"address":"Calle del Duque de Alba, 11-13, 28012 Madrid","charging":false,"coordinates":[-3.70627,40.41178,0],"engineType":"ED","exterior":"GOOD","fuel":65,"interior":"GOOD","name":"259/2904JMP","smartPhoneRequired":true,"vin":"WME4513901K843582"},{"address":"Calle Anastasio Herrero, 16, 28020 Madrid","charging":false,"coordinates":[-3.70049,40.45655,0],"engineType":"ED","exterior":"GOOD","fuel":61,"interior":"GOOD","name":"217/1080JJW","smartPhoneRequired":true,"vin":"WME4513901K843920"},{"address":"Paseo de la Castellana, 292, 28046 Madrid","charging":false,"coordinates":[-3.68563,40.47844,0],"engineType":"ED","exterior":"GOOD","fuel":72,"interior":"GOOD","name":"227/9594JJW","smartPhoneRequired":true,"vin":"WME4513901K843607"},{"address":"Calle de José Ortega y Gasset, 56, 28006 Madrid","charging":false,"coordinates":[-3.6765,40.42994,0],"engineType":"ED","exterior":"GOOD","fuel":57,"interior":"GOOD","name":"255/2593JJX","smartPhoneRequired":true,"vin":"WME4513901K843540"},{"address":"Calle José Antonio Novais, 12, 28040 Madrid","charging":false,"coordinates":[-3.7263,40.44849,0],"engineType":"ED","exterior":"GOOD","fuel":55,"interior":"GOOD","name":"253/2598JJX","smartPhoneRequired":true,"vin":"WME4513901K844470"},{"address":"Calle del Prof. Aranguren, 4, 28040 Madrid","charging":false,"coordinates":[-3.73308,40.44734,0],"engineType":"ED","exterior":"GOOD","fuel":57,"interior":"GOOD","name":"044/3512JJR","smartPhoneRequired":true,"vin":"WME4513901K844453"},{"address":"Calle de Melchor Fernández Almagro, 5, 28029 Madrid","charging":false,"coordinates":[-3.69336,40.47732,0],"engineType":"ED","exterior":"GOOD","fuel":96,"interior":"GOOD","name":"043/3523JJR","smartPhoneRequired":true,"vin":"WME4513901K843682"},{"address":"Paseo de las Delicias, 7, 28045 Madrid","charging":false,"coordinates":[-3.69323,40.40645,0],"engineType":"ED","exterior":"GOOD","fuel":27,"interior":"GOOD","name":"069/7405JJR","smartPhoneRequired":true,"vin":"WME4513901K843595"},{"address":"Calle Aralar, 4-6, 28028 Madrid","charging":false,"coordinates":[-3.66662,40.42137,0],"engineType":"ED","exterior":"GOOD","fuel":48,"interior":"GOOD","name":"085/8095JJR","smartPhoneRequired":true,"vin":"WME4513901K843523"},{"address":"Calle de Viejas, 25, 28046 Madrid","charging":false,"coordinates":[-3.68376,40.48031,0],"engineType":"ED","exterior":"GOOD","fuel":94,"interior":"GOOD","name":"051/3522JJR","smartPhoneRequired":true,"vin":"WME4513901K843616"},{"address":"Calle del Torpedero Tucumán, 4-6, 28016 Madrid","charging":false,"coordinates":[-3.67261,40.4612,0],"engineType":"ED","exterior":"GOOD","fuel":51,"interior":"GOOD","name":"068/7375JJR","smartPhoneRequired":true,"vin":"WME4513901K844892"},{"address":"Calle Juan de Mena, 6-8, 28014 Madrid","charging":false,"coordinates":[-3.69084,40.41733,0],"engineType":"ED","exterior":"GOOD","fuel":89,"interior":"GOOD","name":"027/7990JJN","smartPhoneRequired":true,"vin":"WME4513901K844965"},{"address":"Calle Puerto de la Cruz Verde, 40A, 28045 Madrid","charging":false,"coordinates":[-3.68648,40.38398,0],"engineType":"ED","exterior":"GOOD","fuel":82,"interior":"GOOD","name":"033/3557JJR","smartPhoneRequired":true,"vin":"WME4513901K843553"},{"address":"Paseo de la Castellana, 298, 28046 Madrid","charging":false,"coordinates":[-3.68526,40.47959,0],"engineType":"ED","exterior":"GOOD","fuel":82,"interior":"GOOD","name":"453/8540JNR","smartPhoneRequired":true,"vin":"WME4513901K844417"},{"address":"Calle de Viejas, 25, 28046 Madrid","charging":false,"coordinates":[-3.68366,40.48029,0],"engineType":"ED","exterior":"GOOD","fuel":61,"interior":"GOOD","name":"020/7488JJN","smartPhoneRequired":true,"vin":"WME4513901K843786"},{"address":"Plaza del Gral. Vara de Rey, 5-7, 28005 Madrid","charging":false,"coordinates":[-3.70852,40.40926,0],"engineType":"ED","exterior":"GOOD","fuel":77,"interior":"GOOD","name":"121/5101JJS","smartPhoneRequired":true,"vin":"WME4513901K843985"},{"address":"Ronda de Segovia, 2C, 28005 Madrid","charging":false,"coordinates":[-3.71772,40.41248,0],"engineType":"ED","exterior":"GOOD","fuel":41,"interior":"GOOD","name":"123/9395JJS","smartPhoneRequired":true,"vin":"WME4513901K844425"},{"address":"Calle de los Mártires de Alcalá, 5, 28015 Madrid","charging":false,"coordinates":[-3.7134,40.42822,0],"engineType":"ED","exterior":"GOOD","fuel":71,"interior":"GOOD","name":"125/9443JJS","smartPhoneRequired":true,"vin":"WME4513901K843969"},{"address":"Calle José Celestino Mutis, 25, 28028 Madrid","charging":false,"coordinates":[-3.6639,40.42358,0],"engineType":"ED","exterior":"GOOD","fuel":61,"interior":"GOOD","name":"164/7206JJT","smartPhoneRequired":true,"vin":"WME4513901K844195"},{"address":"Calle del Gral. Lacy, 25, 28045 Madrid","charging":false,"coordinates":[-3.69097,40.39986,0],"engineType":"ED","exterior":"GOOD","fuel":64,"interior":"GOOD","name":"134/9538JJS","smartPhoneRequired":true,"vin":"WME4513901K843987"},{"address":"Paseo de la Castellana, 296, 28046 Madrid","charging":false,"coordinates":[-3.68522,40.47909,0],"engineType":"ED","exterior":"GOOD","fuel":59,"interior":"GOOD","name":"163/1339JJV","smartPhoneRequired":true,"vin":"WME4513901K843839"},{"address":"Plaza Ciencias, 2, 28040 Madrid","charging":false,"coordinates":[-3.72538,40.45079,0],"engineType":"ED","exterior":"GOOD","fuel":50,"interior":"GOOD","name":"165/9686JMP","smartPhoneRequired":true,"vin":"WME4513901K843844"},{"address":"Calle Manuel Caldeiro, 3, 28046 Madrid","charging":false,"coordinates":[-3.6856,40.47655,0],"engineType":"ED","exterior":"GOOD","fuel":52,"interior":"GOOD","name":"257/2229JJX","smartPhoneRequired":true,"vin":"WME4513901K844042"},{"address":"Calle de Orense, 44, 28020 Madrid","charging":false,"coordinates":[-3.69457,40.45662,0],"engineType":"ED","exterior":"GOOD","fuel":94,"interior":"GOOD","name":"246/6871JJW","smartPhoneRequired":true,"vin":"WME4513901K843900"},{"address":"Calle de la Basílica, 23, 28020 Madrid","charging":false,"coordinates":[-3.69745,40.44913,0],"engineType":"ED","exterior":"GOOD","fuel":41,"interior":"GOOD","name":"258/2230JJX","smartPhoneRequired":true,"vin":"WME4513901K843565"},{"address":"Calle de Montalbán, 9, 28014 Madrid","charging":false,"coordinates":[-3.69,40.41807,0],"engineType":"ED","exterior":"GOOD","fuel":61,"interior":"GOOD","name":"422/8894JNL","smartPhoneRequired":true,"vin":"WME4513901K844046"},{"address":"Cdad. Universitaria, 28040 Madrid","charging":false,"coordinates":[-3.73023,40.44606,0],"engineType":"ED","exterior":"GOOD","fuel":52,"interior":"GOOD","name":"388/2874JMP","smartPhoneRequired":true,"vin":"WME4513901K844107"},{"address":"Paseo de los Melancólicos, 4, 28005 Madrid","charging":false,"coordinates":[-3.71876,40.41016,0],"engineType":"ED","exterior":"GOOD","fuel":90,"interior":"GOOD","name":"067/7372JJR","smartPhoneRequired":true,"vin":"WME4513901K843837"},{"address":"Calle de Oñate, 1-3, 28020 Madrid","charging":false,"coordinates":[-3.69552,40.46405,0],"engineType":"ED","exterior":"GOOD","fuel":68,"interior":"GOOD","name":"452/9477JNR","smartPhoneRequired":true,"vin":"WME4513901K843820"},{"address":"Paseo del Prado, 11, 28014 Madrid","charging":false,"coordinates":[-3.69336,40.41393,0],"engineType":"ED","exterior":"GOOD","fuel":30,"interior":"GOOD","name":"449/9455JNR","smartPhoneRequired":true,"vin":"WME4513901K843949"},{"address":"Calle de Blasco de Garay, 17, 28015 Madrid","charging":false,"coordinates":[-3.71203,40.4318,0],"engineType":"ED","exterior":"GOOD","fuel":54,"interior":"GOOD","name":"090/3504JJS","smartPhoneRequired":true,"vin":"WME4513901K843747"},{"address":"Calle del General Díaz Porlier, 10, 28001 Madrid","charging":false,"coordinates":[-3.67712,40.42606,0],"engineType":"ED","exterior":"GOOD","fuel":57,"interior":"GOOD","name":"127/9444JJS","smartPhoneRequired":true,"vin":"WME4513901K843584"},{"address":"Calle de Zurbano, 75, 28010 Madrid","charging":false,"coordinates":[-3.69295,40.43796,0],"engineType":"ED","exterior":"GOOD","fuel":53,"interior":"GOOD","name":"136/9557JJS","smartPhoneRequired":true,"vin":"WME4513901K843712"},{"address":"Calle Academia, 11, 28014 Madrid","charging":false,"coordinates":[-3.68935,40.41479,0],"engineType":"ED","exterior":"GOOD","fuel":41,"interior":"GOOD","name":"149/1304JJV","smartPhoneRequired":true,"vin":"WME4513901K844068"},{"address":"Calle del Prof. Aranguren, 1, 28040 Madrid","charging":false,"coordinates":[-3.73268,40.44732,0],"engineType":"ED","exterior":"GOOD","fuel":44,"interior":"GOOD","name":"150/1307JJV","smartPhoneRequired":true,"vin":"WME4513901K844913"},{"address":"Plaza de Corcubión, 9, 28029 Madrid","charging":false,"coordinates":[-3.70773,40.47679,0],"engineType":"ED","exterior":"GOOD","fuel":81,"interior":"GOOD","name":"188/1916JJV","smartPhoneRequired":true,"vin":"WME4513901K843848"},{"address":"Calle de Arga, 10, 28002 Madrid","charging":false,"coordinates":[-3.68152,40.4493,0],"engineType":"ED","exterior":"GOOD","fuel":83,"interior":"GOOD","name":"173/1849JJV","smartPhoneRequired":true,"vin":"WME4513901K844410"},{"address":"Calle Bambú, 14, 28036 Madrid","charging":false,"coordinates":[-3.67652,40.47608,0],"engineType":"ED","exterior":"GOOD","fuel":50,"interior":"GOOD","name":"187/1914JJV","smartPhoneRequired":true,"vin":"WME4513901K844474"},{"address":"Calle de Carmen Sánchez Carrascosa, 7, 28046 Madrid","charging":false,"coordinates":[-3.68712,40.46886,0],"engineType":"ED","exterior":"GOOD","fuel":70,"interior":"GOOD","name":"196/7083JJW","smartPhoneRequired":true,"vin":"WME4513901K843822"},{"address":"Calle del Gral. Moscardó, 21, 28020 Madrid","charging":false,"coordinates":[-3.69696,40.44876,0],"engineType":"ED","exterior":"GOOD","fuel":48,"interior":"GOOD","name":"199/0936JJW","smartPhoneRequired":true,"vin":"WME4513901K843907"},{"address":"Calle de San Ramón Nonato, 232-238, 28046 Madrid","charging":false,"coordinates":[-3.68717,40.46965,0],"engineType":"ED","exterior":"GOOD","fuel":86,"interior":"GOOD","name":"243/9645JJW","smartPhoneRequired":true,"vin":"WME4513901K843938"},{"address":"Calle de Felipe IV, 2, 28014 Madrid","charging":false,"coordinates":[-3.69191,40.41518,0],"engineType":"ED","exterior":"GOOD","fuel":54,"interior":"GOOD","name":"236/9617JJW","smartPhoneRequired":true,"vin":"WME4513901K844911"},{"address":"Calle de Huesca, 30, 28020 Madrid","charging":false,"coordinates":[-3.69487,40.4578,0],"engineType":"ED","exterior":"GOOD","fuel":51,"interior":"GOOD","name":"207/0997JJW","smartPhoneRequired":true,"vin":"WME4513901K843935"},{"address":"Calle Titán, 8, 28045 Madrid","charging":false,"coordinates":[-3.67847,40.39169,0],"engineType":"ED","exterior":"GOOD","fuel":92,"interior":"GOOD","name":"190/7072JJW","smartPhoneRequired":true,"vin":"WME4513901K843613"},{"address":"Calle de Serrano, 119, 28006 Madrid","charging":false,"coordinates":[-3.68601,40.44128,0],"engineType":"ED","exterior":"GOOD","fuel":38,"interior":"GOOD","name":"215/1015JJW","smartPhoneRequired":true,"vin":"WME4513901K844924"},{"address":"Calle Daniel Vázquez Díaz, 45J, 28046 Madrid","charging":false,"coordinates":[-3.685,40.47471,0],"engineType":"ED","exterior":"GOOD","fuel":53,"interior":"GOOD","name":"209/0972JJW","smartPhoneRequired":true,"vin":"WME4513901K844445"},{"address":"Calle Ariel, 14, 28045 Madrid","charging":false,"coordinates":[-3.68075,40.39205,0],"engineType":"ED","exterior":"GOOD","fuel":75,"interior":"GOOD","name":"210/7103JJW","smartPhoneRequired":true,"vin":"WME4513901K843759"},{"address":"Calle de las Cocheras, 6, 28007 Madrid","charging":false,"coordinates":[-3.67706,40.40023,0],"engineType":"ED","exterior":"GOOD","fuel":59,"interior":"GOOD","name":"291/6655JKC","smartPhoneRequired":true,"vin":"WME4513901K844449"},{"address":"Calle del Pintor Ribera, 22, 28016 Madrid","charging":false,"coordinates":[-3.66761,40.45346,0],"engineType":"ED","exterior":"GOOD","fuel":41,"interior":"GOOD","name":"379/2881JMP","smartPhoneRequired":true,"vin":"WME4513901K843899"},{"address":"Calle de Velázquez, 133, 28006 Madrid","charging":false,"coordinates":[-3.68299,40.43976,0],"engineType":"ED","exterior":"GOOD","fuel":90,"interior":"GOOD","name":"292/6686JKC","smartPhoneRequired":true,"vin":"WME4513901K843796"},{"address":"Paseo de la Virgen del Puerto, 63, 28005 Madrid","charging":false,"coordinates":[-3.72206,40.40494,0],"engineType":"ED","exterior":"GOOD","fuel":88,"interior":"GOOD","name":"201/0992JJW","smartPhoneRequired":true,"vin":"WME4513901K844945"},{"address":"Paseo de las Yeserías, 22, 28005 Madrid","charging":false,"coordinates":[-3.70911,40.39875,0],"engineType":"ED","exterior":"GOOD","fuel":32,"interior":"GOOD","name":"216/1045JJW","smartPhoneRequired":true,"vin":"WME4513901K844457"},{"address":"Calle del Gral. Cadenas Campos, 23-25, 28039 Madrid","charging":false,"coordinates":[-3.71357,40.46189,0],"engineType":"ED","exterior":"GOOD","fuel":95,"interior":"GOOD","name":"284/6526JKC","smartPhoneRequired":true,"vin":"WME4513901K843806"},{"address":"Paseo de los Melancólicos, 20, 28005 Madrid","charging":false,"coordinates":[-3.72069,40.40481,0],"engineType":"ED","exterior":"GOOD","fuel":50,"interior":"GOOD","name":"427/8916JNL","smartPhoneRequired":true,"vin":"WME4513901K843774"},{"address":"Calle de Alfonso XII, 12, 28014 Madrid","charging":false,"coordinates":[-3.68891,40.41824,0],"engineType":"ED","exterior":"GOOD","fuel":74,"interior":"GOOD","name":"414/4135JNL","smartPhoneRequired":true,"vin":"WME4513901K843549"},{"address":"Calle Amor de Dios, 19, 28014 Madrid","charging":false,"coordinates":[-3.69848,40.41245,0],"engineType":"ED","exterior":"GOOD","fuel":49,"interior":"GOOD","name":"433/8942JNL","smartPhoneRequired":true,"vin":"WME4513901K844103"},{"address":"Calle Baltasar Gracián, 1, 28015 Madrid","charging":false,"coordinates":[-3.71061,40.42962,0],"engineType":"ED","exterior":"GOOD","fuel":56,"interior":"GOOD","name":"499/2679JNW","smartPhoneRequired":true,"vin":"WME4513901K843573"},{"address":"Av. de Bruselas, 51, 28028 Madrid","charging":false,"coordinates":[-3.66328,40.43847,0],"engineType":"ED","exterior":"GOOD","fuel":48,"interior":"GOOD","name":"500/2639JNW","smartPhoneRequired":true,"vin":"WME4513901K843643"},{"address":"Av. de Burgos, 37, 28036 Madrid","charging":false,"coordinates":[-3.67564,40.47703,0],"engineType":"ED","exterior":"GOOD","fuel":63,"interior":"GOOD","name":"225/9586JJW","smartPhoneRequired":true,"vin":"WME4513901K844960"},{"address":"Paseo de la Castellana, 300, 28046 Madrid","charging":false,"coordinates":[-3.68517,40.47995,0],"engineType":"ED","exterior":"GOOD","fuel":52,"interior":"GOOD","name":"448/8532JNR","smartPhoneRequired":true,"vin":"WME4513901K844479"},{"address":"Calle Pedro de Valdivia, 23, 28006 Madrid","charging":false,"coordinates":[-3.68103,40.43888,0],"engineType":"ED","exterior":"GOOD","fuel":63,"interior":"GOOD","name":"219/7119JJW","smartPhoneRequired":true,"vin":"WME4513901K843888"},{"address":"Calle de Galileo, 71, 28015 Madrid","charging":false,"coordinates":[-3.71008,40.43724,0],"engineType":"ED","exterior":"GOOD","fuel":55,"interior":"GOOD","name":"447/9711JNR","smartPhoneRequired":true,"vin":"WME4513901K843567"},{"address":"Calle del Dr. Fleming, 17, 28036 Madrid","charging":false,"coordinates":[-3.68824,40.45791,0],"engineType":"ED","exterior":"GOOD","fuel":68,"interior":"GOOD","name":"261/4215JKC","smartPhoneRequired":true,"vin":"WME4513901K843598"},{"address":"Calle Marqués de Torrelaguna, 6, 28046 Madrid","charging":false,"coordinates":[-3.68623,40.47345,0],"engineType":"ED","exterior":"GOOD","fuel":96,"interior":"GOOD","name":"271/4987JKF","smartPhoneRequired":true,"vin":"WME4513901K844436"},{"address":"Calle del Tejo, 5, 28045 Madrid","charging":false,"coordinates":[-3.67819,40.39772,0],"engineType":"ED","exterior":"GOOD","fuel":100,"interior":"GOOD","name":"282/4626JKC","smartPhoneRequired":true,"vin":"WME4513901K843778"},{"address":"Calle Primera, 7, 28016 Madrid","charging":false,"coordinates":[-3.6684,40.45421,0],"engineType":"ED","exterior":"GOOD","fuel":34,"interior":"GOOD","name":"285/6695JKC","smartPhoneRequired":true,"vin":"WME4513901K843560"},{"address":"Calle del Prof. Aranguren, 5, 28040 Madrid","charging":false,"coordinates":[-3.73342,40.44728,0],"engineType":"ED","exterior":"GOOD","fuel":45,"interior":"GOOD","name":"281/5004JKF","smartPhoneRequired":true,"vin":"WME4513901K843917"},{"address":"Calle de Clavileño, 21, 28002 Madrid","charging":false,"coordinates":[-3.67149,40.45134,0],"engineType":"ED","exterior":"GOOD","fuel":58,"interior":"GOOD","name":"286/6564JKC","smartPhoneRequired":true,"vin":"WME4513901K843561"},{"address":"Paseo de la Castellana, 298, 28046 Madrid","charging":false,"coordinates":[-3.68511,40.47955,0],"engineType":"ED","exterior":"GOOD","fuel":94,"interior":"GOOD","name":"297/1150JKD","smartPhoneRequired":true,"vin":"WME4513901K843702"},{"address":"Paseo de la Castellana, 300, 28046 Madrid","charging":false,"coordinates":[-3.68495,40.47997,0],"engineType":"ED","exterior":"GOOD","fuel":57,"interior":"GOOD","name":"296/1050JKD","smartPhoneRequired":true,"vin":"WME4513901K843975"},{"address":"Paseo de la Castellana, 286, 28046 Madrid","charging":false,"coordinates":[-3.68578,40.47738,0],"engineType":"ED","exterior":"GOOD","fuel":62,"interior":"GOOD","name":"440/9435JNR","smartPhoneRequired":true,"vin":"WME4513901K843501"},{"address":"Calle Guadalquivir, 7, 28002 Madrid","charging":false,"coordinates":[-3.6867,40.44671,0],"engineType":"ED","exterior":"GOOD","fuel":52,"interior":"GOOD","name":"295/1022JKD","smartPhoneRequired":true,"vin":"WME4513901K844419"},{"address":"Calle Manuel Caldeiro, 284, 28046 Madrid","charging":false,"coordinates":[-3.68584,40.47653,0],"engineType":"ED","exterior":"GOOD","fuel":78,"interior":"GOOD","name":"300/1228JKD","smartPhoneRequired":true,"vin":"WME4513901K844024"},{"address":"Calle del Ombú, 14, 28045 Madrid","charging":false,"coordinates":[-3.67681,40.39566,0],"engineType":"ED","exterior":"GOOD","fuel":70,"interior":"GOOD","name":"306/1378JKD","smartPhoneRequired":true,"vin":"WME4513901K843566"},{"address":"Calle de Orense, 47-49, 28020 Madrid","charging":false,"coordinates":[-3.69477,40.45547,0],"engineType":"ED","exterior":"GOOD","fuel":59,"interior":"GOOD","name":"308/1474JKD","smartPhoneRequired":true,"vin":"WME4513901K843585"},{"address":"Calle Duque de Rivas, 8, 28012 Madrid","charging":false,"coordinates":[-3.70646,40.41318,0],"engineType":"ED","exterior":"GOOD","fuel":27,"interior":"GOOD","name":"313/2296JKD","smartPhoneRequired":true,"vin":"WME4513901K844116"},{"address":"Calle Antonio Rodríguez Villa, 8, 28002 Madrid","charging":false,"coordinates":[-3.68241,40.44444,0],"engineType":"ED","exterior":"GOOD","fuel":69,"interior":"GOOD","name":"317/2367JKD","smartPhoneRequired":true,"vin":"WME4513901K843646"},{"address":"Calle Francisco Campos, 20-22, 28002 Madrid","charging":false,"coordinates":[-3.68026,40.44391,0],"engineType":"ED","exterior":"GOOD","fuel":60,"interior":"GOOD","name":"322/4717JKD","smartPhoneRequired":true,"vin":"WME4513901K843687"},{"address":"Paseo de la Castellana, 241, 28046 Madrid","charging":false,"coordinates":[-3.68747,40.47294,0],"engineType":"ED","exterior":"GOOD","fuel":57,"interior":"GOOD","name":"321/4713JKD","smartPhoneRequired":true,"vin":"WME4513901K843815"},{"address":"Av. la Paz, 19, 28045 Madrid","charging":false,"coordinates":[-3.67601,40.39346,0],"engineType":"ED","exterior":"GOOD","fuel":86,"interior":"GOOD","name":"329/4711JKD","smartPhoneRequired":true,"vin":"WME4513901K843918"},{"address":"Calle Planeta Tierra, 4, 28045 Madrid","charging":false,"coordinates":[-3.67972,40.39184,0],"engineType":"ED","exterior":"GOOD","fuel":86,"interior":"GOOD","name":"333/4710JKD","smartPhoneRequired":true,"vin":"WME4513901K843954"},{"address":"Av. la Paz, 19, 28045 Madrid","charging":false,"coordinates":[-3.67586,40.3934,0],"engineType":"ED","exterior":"GOOD","fuel":70,"interior":"GOOD","name":"332/4712JKD","smartPhoneRequired":true,"vin":"WME4513901K843751"},{"address":"Paseo de la Castellana, 292, 28046 Madrid","charging":false,"coordinates":[-3.68563,40.47833,0],"engineType":"ED","exterior":"GOOD","fuel":63,"interior":"GOOD","name":"339/4807JKD","smartPhoneRequired":true,"vin":"WME4513901K843562"},{"address":"Calle de La Bañeza, 40, 28029 Madrid","charging":false,"coordinates":[-3.71562,40.4761,0],"engineType":"ED","exterior":"GOOD","fuel":63,"interior":"GOOD","name":"342/4838JKD","smartPhoneRequired":true,"vin":"WME4513901K843693"},{"address":"Ronda de Segovia, 69-71, 28005 Madrid","charging":false,"coordinates":[-3.71446,40.4078,0],"engineType":"ED","exterior":"GOOD","fuel":88,"interior":"GOOD","name":"340/4829JKD","smartPhoneRequired":true,"vin":"WME4513901K843762"},{"address":"Calle de Antonio Maura, 18, 28014 Madrid","charging":false,"coordinates":[-3.68968,40.41659,0],"engineType":"ED","exterior":"GOOD","fuel":52,"interior":"GOOD","name":"345/1511JKF","smartPhoneRequired":true,"vin":"WME4513901K843622"},{"address":"Calle del Prof. Aranguren, 4, 28040 Madrid","charging":false,"coordinates":[-3.73284,40.44751,0],"engineType":"ED","exterior":"GOOD","fuel":63,"interior":"GOOD","name":"348/4864JKD","smartPhoneRequired":true,"vin":"WME4513901K843504"},{"address":"Calle Ancora, 35, 28045 Madrid","charging":false,"coordinates":[-3.69003,40.40288,0],"engineType":"ED","exterior":"GOOD","fuel":57,"interior":"GOOD","name":"350/4882JKD","smartPhoneRequired":true,"vin":"WME4513901K843550"},{"address":"Calle de Carbonero y Sol, 6, 28006 Madrid","charging":false,"coordinates":[-3.69028,40.44486,0],"engineType":"ED","exterior":"GOOD","fuel":70,"interior":"GOOD","name":"446/9447JNR","smartPhoneRequired":true,"vin":"WME4513901K843945"},{"address":"Calle del Maestro Ripoll, 26, 28006 Madrid","charging":false,"coordinates":[-3.68879,40.44458,0],"engineType":"ED","exterior":"GOOD","fuel":48,"interior":"GOOD","name":"356/1519JKF","smartPhoneRequired":true,"vin":"WME4513901K843827"},{"address":"Calle Tremp, 11, 28040 Madrid","charging":false,"coordinates":[-3.71761,40.45359,0],"engineType":"ED","exterior":"GOOD","fuel":99,"interior":"GOOD","name":"357/5914JKF","smartPhoneRequired":true,"vin":"WME4513901K844481"},{"address":"Av. de Burgos, 34, 28036 Madrid","charging":false,"coordinates":[-3.67518,40.47991,0],"engineType":"ED","exterior":"GOOD","fuel":67,"interior":"GOOD","name":"360/9724JMP","smartPhoneRequired":true,"vin":"WME4513901K844412"},{"address":"Paseo de la Castellana, 298, 28046 Madrid","charging":false,"coordinates":[-3.68509,40.47979,0],"engineType":"ED","exterior":"GOOD","fuel":53,"interior":"GOOD","name":"443/9441JNR","smartPhoneRequired":true,"vin":"WME4513901K843690"},{"address":"Calle Titán, 11, 28045 Madrid","charging":false,"coordinates":[-3.67974,40.39113,0],"engineType":"ED","exterior":"GOOD","fuel":77,"interior":"GOOD","name":"413/9407JNR","smartPhoneRequired":true,"vin":"WME4513901K843794"},{"address":"Paseo de la Castellana, 280, 28046 Madrid","charging":false,"coordinates":[-3.68558,40.47642,0],"engineType":"ED","exterior":"GOOD","fuel":67,"interior":"GOOD","name":"325/4746JKD","smartPhoneRequired":true,"vin":"WME4513901K843789"},{"address":"Paseo de la Castellana, 292, 28046 Madrid","charging":false,"coordinates":[-3.68546,40.47875,0],"engineType":"ED","exterior":"GOOD","fuel":79,"interior":"GOOD","name":"252/2596JJX","smartPhoneRequired":true,"vin":"WME4513901K844091"},{"address":"Calle del Conde de Torralba, 1-5, 28046 Madrid","charging":false,"coordinates":[-3.68518,40.47733,0],"engineType":"ED","exterior":"GOOD","fuel":75,"interior":"GOOD","name":"015/6979JJN","smartPhoneRequired":true,"vin":"WME4513901K843590"},{"address":"Calle de Alfonso XII, 8, 28001 Madrid","charging":false,"coordinates":[-3.6888,40.41851,0],"engineType":"ED","exterior":"GOOD","fuel":50,"interior":"GOOD","name":"377/2908JMP","smartPhoneRequired":true,"vin":"WME4513901K844431"},{"address":"Calle del Gral. Pardiñas, 30, 28001 Madrid","charging":false,"coordinates":[-3.67847,40.42637,0],"engineType":"ED","exterior":"GOOD","fuel":50,"interior":"GOOD","name":"376/2876JMP","smartPhoneRequired":true,"vin":"WME4513901K844002"},{"address":"Calle de la Moreria, 15, 28005 Madrid","charging":false,"coordinates":[-3.71414,40.41283,0],"engineType":"ED","exterior":"GOOD","fuel":41,"interior":"GOOD","name":"382/2906JMP","smartPhoneRequired":true,"vin":"WME4513901K843537"},{"address":"Calle Levante, 34, 28036 Madrid","charging":false,"coordinates":[-3.6808,40.46973,0],"engineType":"ED","exterior":"GOOD","fuel":55,"interior":"GOOD","name":"364/9996JMP","smartPhoneRequired":true,"vin":"WME4513901K843548"},{"address":"Plaza de la Cebada, 6-52, 28005 Madrid","charging":false,"coordinates":[-3.70965,40.41141,0],"engineType":"ED","exterior":"GOOD","fuel":34,"interior":"GOOD","name":"489/9663JNR","smartPhoneRequired":true,"vin":"WME4513901K843496"},{"address":"Calle del Prof. Aranguren, 4, 28040 Madrid","charging":false,"coordinates":[-3.73288,40.44752,0],"engineType":"ED","exterior":"GOOD","fuel":64,"interior":"GOOD","name":"366/9995JMP","smartPhoneRequired":true,"vin":"WME4513901K843574"},{"address":"Calle de Augusto Figueroa, 34, 28004 Madrid","charging":false,"coordinates":[-3.69649,40.42188,0],"engineType":"ED","exterior":"GOOD","fuel":55,"interior":"GOOD","name":"080/7411JJR","smartPhoneRequired":true,"vin":"WME4513901K843515"},{"address":"Calle Paul Guinard, 2, 28040 Madrid","charging":false,"coordinates":[-3.72999,40.44045,0],"engineType":"ED","exterior":"GOOD","fuel":39,"interior":"GOOD","name":"050/3548JJR","smartPhoneRequired":true,"vin":"WME4513901K843604"},{"address":"Calle del Dr. Esquerdo, 87, 28007 Madrid","charging":false,"coordinates":[-3.66914,40.4177,0],"engineType":"ED","exterior":"GOOD","fuel":50,"interior":"GOOD","name":"226/9592JJW","smartPhoneRequired":true,"vin":"WME4513901K844972"},{"address":"Av. de Monforte de Lemos, 31, 28029 Madrid","charging":false,"coordinates":[-3.70393,40.47963,0],"engineType":"ED","exterior":"GOOD","fuel":59,"interior":"GOOD","name":"278/4608JKC","smartPhoneRequired":true,"vin":"WME4513901K844076"},{"address":"Calle del Eucalipto, 11, 28016 Madrid","charging":false,"coordinates":[-3.66386,40.4536,0],"engineType":"ED","exterior":"GOOD","fuel":100,"interior":"GOOD","name":"109/3560JJS","smartPhoneRequired":true,"vin":"WME4513901K844089"},{"address":"Paseo de la Castellana, 298, 28046 Madrid","charging":false,"coordinates":[-3.68525,40.4796,0],"engineType":"ED","exterior":"GOOD","fuel":62,"interior":"GOOD","name":"287/6575JKC","smartPhoneRequired":true,"vin":"WME4513901K843922"},{"address":"Calle Ariel, 14, 28045 Madrid","charging":false,"coordinates":[-3.68088,40.39212,0],"engineType":"ED","exterior":"GOOD","fuel":83,"interior":"GOOD","name":"231/1105JJW","smartPhoneRequired":true,"vin":"WME4513901K844927"},{"address":"Calle de Velázquez, 133, 28006 Madrid","charging":false,"coordinates":[-3.68297,40.43947,0],"engineType":"ED","exterior":"GOOD","fuel":48,"interior":"GOOD","name":"496/9715JNR","smartPhoneRequired":true,"vin":"WME4513901K843630"},{"address":"Calle de Müller, 40, 28029 Madrid","charging":false,"coordinates":[-3.69797,40.46569,0],"engineType":"ED","exterior":"GOOD","fuel":48,"interior":"GOOD","name":"081/7432JJR","smartPhoneRequired":true,"vin":"WME4513901K843880"},{"address":"Calle de Oltra, 8, 28028 Madrid","charging":false,"coordinates":[-3.66557,40.438,0],"engineType":"ED","exterior":"GOOD","fuel":62,"interior":"GOOD","name":"488/9661JNR","smartPhoneRequired":true,"vin":"WME4513901K843743"},{"address":"Av. de Bruselas, 52, 28028 Madrid","charging":false,"coordinates":[-3.66292,40.43883,0],"engineType":"ED","exterior":"GOOD","fuel":42,"interior":"GOOD","name":"420/8890JNL","smartPhoneRequired":true,"vin":"WME4513901K843864"},{"address":"Paseo de la Castellana, 160-162, 28046 Madrid","charging":false,"coordinates":[-3.68965,40.45771,0],"engineType":"ED","exterior":"GOOD","fuel":46,"interior":"GOOD","name":"384/2884JMP","smartPhoneRequired":true,"vin":"WME4513901K843698"},{"address":"Calle de López de Hoyos, 27, 28006 Madrid","charging":false,"coordinates":[-3.68145,40.44006,0],"engineType":"ED","exterior":"GOOD","fuel":35,"interior":"GOOD","name":"324/4743JKD","smartPhoneRequired":true,"vin":"WME4513901K844910"},{"address":"Calle Francisco Suárez, 22, 28036 Madrid","charging":false,"coordinates":[-3.68146,40.46448,0],"engineType":"ED","exterior":"GOOD","fuel":46,"interior":"GOOD","name":"349/4868JKD","smartPhoneRequired":true,"vin":"WME4513901K844097"},{"address":"Calle del Prof. Aranguren, 4, 28040 Madrid","charging":false,"coordinates":[-3.73288,40.44754,0],"engineType":"ED","exterior":"GOOD","fuel":46,"interior":"GOOD","name":"399/3914JNL","smartPhoneRequired":true,"vin":"WME4513901K843768"},{"address":"Calle Antonia Ruiz Soro, 1, 28028 Madrid","charging":false,"coordinates":[-3.66738,40.43811,0],"engineType":"ED","exterior":"GOOD","fuel":99,"interior":"GOOD","name":"203/2687JJV","smartPhoneRequired":true,"vin":"WME4513901K844079"},{"address":"Calle de Mauricio Legendre, 35, 28046 Madrid","charging":false,"coordinates":[-3.68549,40.47324,0],"engineType":"ED","exterior":"GOOD","fuel":44,"interior":"GOOD","name":"168/1841JJV","smartPhoneRequired":true,"vin":"WME4513901K844038"},{"address":"Calle Manuel Caldeiro, 2, 28046 Madrid","charging":false,"coordinates":[-3.68504,40.47649,0],"engineType":"ED","exterior":"GOOD","fuel":78,"interior":"GOOD","name":"371/3441JNL","smartPhoneRequired":true,"vin":"WME4513901K843824"},{"address":"Paseo de la Castellana, 298, 28046 Madrid","charging":false,"coordinates":[-3.68531,40.47955,0],"engineType":"ED","exterior":"GOOD","fuel":57,"interior":"GOOD","name":"011/6661JJN","smartPhoneRequired":true,"vin":"WME4513901K844060"},{"address":"Calle de Cobos de Segovia, 21, 28005 Madrid","charging":false,"coordinates":[-3.71883,40.40441,0],"engineType":"ED","exterior":"GOOD","fuel":52,"interior":"GOOD","name":"254/2222JJX","smartPhoneRequired":true,"vin":"WME4513901K843509"},{"address":"Calle San Buenaventura, 9, 28005 Madrid","charging":false,"coordinates":[-3.71504,40.4116,0],"engineType":"ED","exterior":"GOOD","fuel":53,"interior":"GOOD","name":"202/9747JJW","smartPhoneRequired":true,"vin":"WME4513901K844093"},{"address":"Av. de Monforte de Lemos, 8, 28029 Madrid","charging":false,"coordinates":[-3.69278,40.47934,0],"engineType":"ED","exterior":"GOOD","fuel":91,"interior":"GOOD","name":"074/7366JJR","smartPhoneRequired":true,"vin":"WME4513901K843911"},{"address":"Calle Campomanes, 1-3, 28013 Madrid","charging":false,"coordinates":[-3.7095,40.4187,0],"engineType":"ED","exterior":"GOOD","fuel":36,"interior":"GOOD","name":"022/7511JJN","smartPhoneRequired":true,"vin":"WME4513901K844062"},{"address":"Calle Algete, 7, 28045 Madrid","charging":false,"coordinates":[-3.69438,40.38859,0],"engineType":"ED","exterior":"GOOD","fuel":97,"interior":"GOOD","name":"218/7116JJW","smartPhoneRequired":true,"vin":"WME4513901K843482"},{"address":"Calle de la Basílica, 30, 28020 Madrid","charging":false,"coordinates":[-3.69705,40.44971,0],"engineType":"ED","exterior":"GOOD","fuel":57,"interior":"GOOD","name":"211/7108JJW","smartPhoneRequired":true,"vin":"WME4513901K843893"},{"address":"Paseo de la Castellana, 84, 28046 Madrid","charging":false,"coordinates":[-3.6911,40.44247,0],"engineType":"ED","exterior":"GOOD","fuel":64,"interior":"GOOD","name":"435/8949JNL","smartPhoneRequired":true,"vin":"WME4513901K843956"},{"address":"Calle Acanto, 17, 28045 Madrid","charging":false,"coordinates":[-3.67627,40.39339,0],"engineType":"ED","exterior":"GOOD","fuel":85,"interior":"GOOD","name":"174/1850JJV","smartPhoneRequired":true,"vin":"WME4513901K843989"},{"address":"Calle Gral. Ramírez de Madrid, 22, 28020 Madrid","charging":false,"coordinates":[-3.69778,40.45574,0],"engineType":"ED","exterior":"GOOD","fuel":30,"interior":"GOOD","name":"212/2709JJV","smartPhoneRequired":true,"vin":"WME4513901K844086"},{"address":"Av. la Paz, 19, 28045 Madrid","charging":false,"coordinates":[-3.67577,40.39352,0],"engineType":"ED","exterior":"GOOD","fuel":88,"interior":"GOOD","name":"141/9661JJS","smartPhoneRequired":true,"vin":"WME4513901K843958"},{"address":"Calle Francisco de Diego, 35, 28040 Madrid","charging":false,"coordinates":[-3.71543,40.45618,0],"engineType":"ED","exterior":"GOOD","fuel":66,"interior":"GOOD","name":"126/6043JJS","smartPhoneRequired":true,"vin":"WME4513901K843885"},{"address":"Paseo de la Castellana, 278, 28046 Madrid","charging":false,"coordinates":[-3.68624,40.47564,0],"engineType":"ED","exterior":"GOOD","fuel":48,"interior":"GOOD","name":"451/8539JNR","smartPhoneRequired":true,"vin":"WME4513901K843952"},{"address":"Calle de Juan Duque, 35, 28005 Madrid","charging":false,"coordinates":[-3.71955,40.41013,0],"engineType":"ED","exterior":"GOOD","fuel":85,"interior":"GOOD","name":"423/8907JNL","smartPhoneRequired":true,"vin":"WME4513901K844271"},{"address":"Av. de Alfonso XIII, 92, 28016 Madrid","charging":false,"coordinates":[-3.66689,40.45564,0],"engineType":"ED","exterior":"GOOD","fuel":50,"interior":"GOOD","name":"221/9558JJW","smartPhoneRequired":true,"vin":"WME4513901K843996"},{"address":"Calle de Bolonia, 6, 28028 Madrid","charging":false,"coordinates":[-3.66455,40.43936,0],"engineType":"ED","exterior":"GOOD","fuel":91,"interior":"GOOD","name":"014/6964JJN","smartPhoneRequired":true,"vin":"WME4513901K843868"},{"address":"Calle de Pedro Teixeira, 10, 28020 Madrid","charging":false,"coordinates":[-3.69303,40.45501,0],"engineType":"ED","exterior":"GOOD","fuel":64,"interior":"GOOD","name":"276/4597JKC","smartPhoneRequired":true,"vin":"WME4513901K843640"},{"address":"Calle del Prof. Aranguren, 5, 28040 Madrid","charging":false,"coordinates":[-3.73334,40.44755,0],"engineType":"ED","exterior":"GOOD","fuel":71,"interior":"GOOD","name":"346/4854JKD","smartPhoneRequired":true,"vin":"WME4513901K843799"},{"address":"Calle de Padre Damián, 34b, 28036 Madrid","charging":false,"coordinates":[-3.6856,40.45739,0],"engineType":"ED","exterior":"GOOD","fuel":60,"interior":"GOOD","name":"249/6878JJW","smartPhoneRequired":true,"vin":"WME4513901K843669"},{"address":"Calle Henri Dunant, 22, 28036 Madrid","charging":false,"coordinates":[-3.68417,40.46022,0],"engineType":"ED","exterior":"GOOD","fuel":27,"interior":"GOOD","name":"314/2265JKD","smartPhoneRequired":true,"vin":"WME4513901K844421"},{"address":"Calle Mateo Inurria, 19, 28036 Madrid","charging":false,"coordinates":[-3.68418,40.46718,0],"engineType":"ED","exterior":"GOOD","fuel":81,"interior":"GOOD","name":"385/2895JMP","smartPhoneRequired":true,"vin":"WME4513901K843772"},{"address":"Calle Pinos Alta, 49, 28029 Madrid","charging":false,"coordinates":[-3.69729,40.46716,0],"engineType":"ED","exterior":"GOOD","fuel":69,"interior":"GOOD","name":"193/1921JJV","smartPhoneRequired":true,"vin":"WME4513901K843489"},{"address":"Calle de San Germán, 10, 28020 Madrid","charging":false,"coordinates":[-3.69237,40.45628,0],"engineType":"ED","exterior":"GOOD","fuel":34,"interior":"GOOD","name":"205/0977JJW","smartPhoneRequired":true,"vin":"WME4513901K844962"},{"address":"Calle Méndez Núñez, 19, 28014 Madrid","charging":false,"coordinates":[-3.68927,40.41596,0],"engineType":"ED","exterior":"GOOD","fuel":58,"interior":"GOOD","name":"334/4750JKD","smartPhoneRequired":true,"vin":"WME4513901K843732"},{"address":"Av. de Brasilia, 27, 28028 Madrid","charging":false,"coordinates":[-3.66124,40.4407,0],"engineType":"ED","exterior":"GOOD","fuel":36,"interior":"GOOD","name":"245/9734JJW","smartPhoneRequired":true,"vin":"WME4513901K844036"},{"address":"Calle Acanto, 8-10, 28045 Madrid","charging":false,"coordinates":[-3.67624,40.39745,0],"engineType":"ED","exterior":"GOOD","fuel":82,"interior":"GOOD","name":"169/1843JJV","smartPhoneRequired":true,"vin":"WME4513901K844458"},{"address":"E park, calle Farmacia 12","charging":false,"coordinates":[-3.69939,40.42385,0],"engineType":"ED","exterior":"GOOD","fuel":35,"interior":"GOOD","name":"076/7451JJR","smartPhoneRequired":true,"vin":"WME4513901K844404"},{"address":"Calle Julio Palacios, 17, 28029 Madrid","charging":false,"coordinates":[-3.6952,40.48275,0],"engineType":"ED","exterior":"GOOD","fuel":63,"interior":"GOOD","name":"393/0004JMR","smartPhoneRequired":true,"vin":"WME4513901K844891"},{"address":"Calle del Gral. Moscardó, 22, 28020 Madrid","charging":false,"coordinates":[-3.6968,40.44959,0],"engineType":"ED","exterior":"GOOD","fuel":62,"interior":"GOOD","name":"290/6824JKC","smartPhoneRequired":true,"vin":"WME4513901K844438"},{"address":"Av. Complutense, 22, 28040 Madrid","charging":false,"coordinates":[-3.72758,40.45043,0],"engineType":"ED","exterior":"GOOD","fuel":71,"interior":"GOOD","name":"455/8612JNR","smartPhoneRequired":true,"vin":"WME4513901K843926"},{"address":"Calle Ariel, 14, 28045 Madrid","charging":false,"coordinates":[-3.68101,40.39208,0],"engineType":"ED","exterior":"GOOD","fuel":71,"interior":"GOOD","name":"040/3502JJR","smartPhoneRequired":true,"vin":"WME4513901K843835"},{"address":"Plaza de la Cebada, 5-15, 28005 Madrid","charging":false,"coordinates":[-3.70968,40.41131,0],"engineType":"ED","exterior":"GOOD","fuel":42,"interior":"GOOD","name":"228/9596JJW","smartPhoneRequired":true,"vin":"WME4513901K843673"},{"address":"Av. Complutense, 22, 28040 Madrid","charging":false,"coordinates":[-3.72767,40.45113,0],"engineType":"ED","exterior":"GOOD","fuel":96,"interior":"GOOD","name":"260/4210JKC","smartPhoneRequired":true,"vin":"WME4513901K843983"}]}
